{
  "type": "FeatureCollection",
  "features": [
    {
      "type": "Feature",
      "properties": {
        "name": "ABASA"
      },
      "geometry": {
        "type": "Point",
        "coordinates": [
          123.25232222222222,
          24.439172222222222
        ]
      }
    },
    {
      "type": "Feature",
      "properties": {
        "name": "ABASI"
      },
      "geometry": {
        "type": "Point",
        "coordinates": [
          144.14275,
          44.00031944444444
        ]
      }
    },
    {
      "type": "Feature",
      "properties": {
        "name": "ABECK"
      },
      "geometry": {
        "type": "Point",
        "coordinates": [
          130.81844166666667,
          32.90374444444444
        ]
      }
    },
    {
      "type": "Feature",
      "properties": {
        "name": "ABENO"
      },
      "geometry": {
        "type": "Point",
        "coordinates": [
          135.69876944444445,
          34.59234166666667
        ]
      }
    },
    {
      "type": "Feature",
      "properties": {
        "name": "ABIRA"
      },
      "geometry": {
        "type": "Point",
        "coordinates": [
          141.9642861111111,
          42.79821111111111
        ]
      }
    },
    {
      "type": "Feature",
      "properties": {
        "name": "ABKMA"
      },
      "geometry": {
        "type": "Point",
        "coordinates": [
          140.42166666666665,
          37.09594722222222
        ]
      }
    },
    {
      "type": "Feature",
      "properties": {
        "name": "ABUMI"
      },
      "geometry": {
        "type": "Point",
        "coordinates": [
          131.59251111111112,
          32.74498055555556
        ]
      }
    },
    {
      "type": "Feature",
      "properties": {
        "name": "ABURA"
      },
      "geometry": {
        "type": "Point",
        "coordinates": [
          140.67445277777776,
          40.90555277777778
        ]
      }
    },
    {
      "type": "Feature",
      "properties": {
        "name": "ACELA"
      },
      "geometry": {
        "type": "Point",
        "coordinates": [
          140.32209722222223,
          36.120219444444444
        ]
      }
    },
    {
      "type": "Feature",
      "properties": {
        "name": "ACORD"
      },
      "geometry": {
        "type": "Point",
        "coordinates": [
          128.53069444444446,
          25.602747222222224
        ]
      }
    },
    {
      "type": "Feature",
      "properties": {
        "name": "ACTIE"
      },
      "geometry": {
        "type": "Point",
        "coordinates": [
          130.4873333333333,
          33.69936944444444
        ]
      }
    },
    {
      "type": "Feature",
      "properties": {
        "name": "ACTOR"
      },
      "geometry": {
        "type": "Point",
        "coordinates": [
          139.84035555555556,
          35.45944444444445
        ]
      }
    },
    {
      "type": "Feature",
      "properties": {
        "name": "ACURE"
      },
      "geometry": {
        "type": "Point",
        "coordinates": [
          140.45898055555554,
          35.75988888888889
        ]
      }
    },
    {
      "type": "Feature",
      "properties": {
        "name": "ADDAN"
      },
      "geometry": {
        "type": "Point",
        "coordinates": [
          128.3081777777778,
          26.68611111111111
        ]
      }
    },
    {
      "type": "Feature",
      "properties": {
        "name": "ADDUM"
      },
      "geometry": {
        "type": "Point",
        "coordinates": [
          140.23908055555555,
          34.891525
        ]
      }
    },
    {
      "type": "Feature",
      "properties": {
        "name": "ADGIR"
      },
      "geometry": {
        "type": "Point",
        "coordinates": [
          133.0833888888889,
          33.393411111111114
        ]
      }
    },
    {
      "type": "Feature",
      "properties": {
        "name": "ADGOM"
      },
      "geometry": {
        "type": "Point",
        "coordinates": [
          136.38693055555555,
          36.008177777777775
        ]
      }
    },
    {
      "type": "Feature",
      "properties": {
        "name": "ADGOR"
      },
      "geometry": {
        "type": "Point",
        "coordinates": [
          149.65071111111112,
          40.42468888888889
        ]
      }
    },
    {
      "type": "Feature",
      "properties": {
        "name": "ADGUN"
      },
      "geometry": {
        "type": "Point",
        "coordinates": [
          136.02139722222225,
          35.062425
        ]
      }
    },
    {
      "type": "Feature",
      "properties": {
        "name": "ADKAK"
      },
      "geometry": {
        "type": "Point",
        "coordinates": [
          142.16330555555555,
          33.9035
        ]
      }
    },
    {
      "type": "Feature",
      "properties": {
        "name": "ADKET"
      },
      "geometry": {
        "type": "Point",
        "coordinates": [
          139.4133,
          35.26500277777778
        ]
      }
    },
    {
      "type": "Feature",
      "properties": {
        "name": "ADKIP"
      },
      "geometry": {
        "type": "Point",
        "coordinates": [
          134.72797500000001,
          34.11645
        ]
      }
    },
    {
      "type": "Feature",
      "properties": {
        "name": "ADLEB"
      },
      "geometry": {
        "type": "Point",
        "coordinates": [
          133.27632222222223,
          35.497708333333335
        ]
      }
    },
    {
      "type": "Feature",
      "properties": {
        "name": "ADMIG"
      },
      "geometry": {
        "type": "Point",
        "coordinates": [
          143.6556111111111,
          43.24588055555556
        ]
      }
    },
    {
      "type": "Feature",
      "properties": {
        "name": "ADMIK"
      },
      "geometry": {
        "type": "Point",
        "coordinates": [
          141.502675,
          24.850805555555556
        ]
      }
    },
    {
      "type": "Feature",
      "properties": {
        "name": "ADMUB"
      },
      "geometry": {
        "type": "Point",
        "coordinates": [
          130.38414444444444,
          33.68320555555555
        ]
      }
    },
    {
      "type": "Feature",
      "properties": {
        "name": "ADNAP"
      },
      "geometry": {
        "type": "Point",
        "coordinates": [
          145.66631111111113,
          37.197466666666664
        ]
      }
    },
    {
      "type": "Feature",
      "properties": {
        "name": "ADNOK"
      },
      "geometry": {
        "type": "Point",
        "coordinates": [
          130.37844722222223,
          32.04303055555555
        ]
      }
    },
    {
      "type": "Feature",
      "properties": {
        "name": "ADPAB"
      },
      "geometry": {
        "type": "Point",
        "coordinates": [
          128.6671611111111,
          27.35425
        ]
      }
    },
    {
      "type": "Feature",
      "properties": {
        "name": "ADPAR"
      },
      "geometry": {
        "type": "Point",
        "coordinates": [
          130.6249916666667,
          33.329997222222225
        ]
      }
    },
    {
      "type": "Feature",
      "properties": {
        "name": "ADPIN"
      },
      "geometry": {
        "type": "Point",
        "coordinates": [
          141.49281944444442,
          43.035977777777774
        ]
      }
    },
    {
      "type": "Feature",
      "properties": {
        "name": "ADRAG"
      },
      "geometry": {
        "type": "Point",
        "coordinates": [
          130.5973666666667,
          32.835175
        ]
      }
    },
    {
      "type": "Feature",
      "properties": {
        "name": "ADRIA"
      },
      "geometry": {
        "type": "Point",
        "coordinates": [
          140.59286111111112,
          35.51578333333333
        ]
      }
    },
    {
      "type": "Feature",
      "properties": {
        "name": "ADTRA"
      },
      "geometry": {
        "type": "Point",
        "coordinates": [
          140.57246944444444,
          37.00767777777778
        ]
      }
    },
    {
      "type": "Feature",
      "properties": {
        "name": "AGARI"
      },
      "geometry": {
        "type": "Point",
        "coordinates": [
          123.19038333333334,
          24.517605555555555
        ]
      }
    },
    {
      "type": "Feature",
      "properties": {
        "name": "AGATA"
      },
      "geometry": {
        "type": "Point",
        "coordinates": [
          129.46328333333332,
          34.173177777777774
        ]
      }
    },
    {
      "type": "Feature",
      "properties": {
        "name": "AGEDI"
      },
      "geometry": {
        "type": "Point",
        "coordinates": [
          155.09668333333335,
          44.166666666666664
        ]
      }
    },
    {
      "type": "Feature",
      "properties": {
        "name": "AGIKA"
      },
      "geometry": {
        "type": "Point",
        "coordinates": [
          131.441075,
          30.003683333333335
        ]
      }
    },
    {
      "type": "Feature",
      "properties": {
        "name": "AGIMO"
      },
      "geometry": {
        "type": "Point",
        "coordinates": [
          138.3128777777778,
          33.44343055555555
        ]
      }
    },
    {
      "type": "Feature",
      "properties": {
        "name": "AGNES"
      },
      "geometry": {
        "type": "Point",
        "coordinates": [
          139.87273333333334,
          35.41368333333333
        ]
      }
    },
    {
      "type": "Feature",
      "properties": {
        "name": "AGOVO"
      },
      "geometry": {
        "type": "Point",
        "coordinates": [
          141.29204166666668,
          43.18236388888889
        ]
      }
    },
    {
      "type": "Feature",
      "properties": {
        "name": "AGPUK"
      },
      "geometry": {
        "type": "Point",
        "coordinates": [
          136.08091666666667,
          34.485641666666666
        ]
      }
    },
    {
      "type": "Feature",
      "properties": {
        "name": "AGRIS"
      },
      "geometry": {
        "type": "Point",
        "coordinates": [
          139.9425361111111,
          36.42075
        ]
      }
    },
    {
      "type": "Feature",
      "properties": {
        "name": "AGRIT"
      },
      "geometry": {
        "type": "Point",
        "coordinates": [
          129.31346666666667,
          32.77548888888889
        ]
      }
    },
    {
      "type": "Feature",
      "properties": {
        "name": "AGRUM"
      },
      "geometry": {
        "type": "Point",
        "coordinates": [
          132.92711666666665,
          32.845330555555556
        ]
      }
    },
    {
      "type": "Feature",
      "properties": {
        "name": "AGSEB"
      },
      "geometry": {
        "type": "Point",
        "coordinates": [
          138.41911666666667,
          35.794777777777774
        ]
      }
    },
    {
      "type": "Feature",
      "properties": {
        "name": "AGSUP"
      },
      "geometry": {
        "type": "Point",
        "coordinates": [
          134.9578611111111,
          34.23448333333334
        ]
      }
    },
    {
      "type": "Feature",
      "properties": {
        "name": "AIBAR"
      },
      "geometry": {
        "type": "Point",
        "coordinates": [
          124.37767777777778,
          24.52823611111111
        ]
      }
    },
    {
      "type": "Feature",
      "properties": {
        "name": "AIBIS"
      },
      "geometry": {
        "type": "Point",
        "coordinates": [
          138.9903222222222,
          37.95998055555556
        ]
      }
    },
    {
      "type": "Feature",
      "properties": {
        "name": "AIDAH"
      },
      "geometry": {
        "type": "Point",
        "coordinates": [
          139.85640277777776,
          35.450813888888895
        ]
      }
    },
    {
      "type": "Feature",
      "properties": {
        "name": "AIKOK"
      },
      "geometry": {
        "type": "Point",
        "coordinates": [
          143.26334722222222,
          42.643877777777774
        ]
      }
    },
    {
      "type": "Feature",
      "properties": {
        "name": "AILEY"
      },
      "geometry": {
        "type": "Point",
        "coordinates": [
          132.6018222222222,
          33.23441666666667
        ]
      }
    },
    {
      "type": "Feature",
      "properties": {
        "name": "AINOH"
      },
      "geometry": {
        "type": "Point",
        "coordinates": [
          130.104675,
          32.771425
        ]
      }
    },
    {
      "type": "Feature",
      "properties": {
        "name": "AIRAH"
      },
      "geometry": {
        "type": "Point",
        "coordinates": [
          131.10425,
          31.235722222222222
        ]
      }
    },
    {
      "type": "Feature",
      "properties": {
        "name": "AIRIS"
      },
      "geometry": {
        "type": "Point",
        "coordinates": [
          140.95761666666667,
          41.71321666666667
        ]
      }
    },
    {
      "type": "Feature",
      "properties": {
        "name": "AIZEN"
      },
      "geometry": {
        "type": "Point",
        "coordinates": [
          134.7348861111111,
          34.023325
        ]
      }
    },
    {
      "type": "Feature",
      "properties": {
        "name": "AIZUH"
      },
      "geometry": {
        "type": "Point",
        "coordinates": [
          139.7235611111111,
          37.761208333333336
        ]
      }
    },
    {
      "type": "Feature",
      "properties": {
        "name": "AKAGI"
      },
      "geometry": {
        "type": "Point",
        "coordinates": [
          139.69896666666668,
          36.39120277777778
        ]
      }
    },
    {
      "type": "Feature",
      "properties": {
        "name": "AKANA"
      },
      "geometry": {
        "type": "Point",
        "coordinates": [
          132.8179861111111,
          34.96346388888889
        ]
      }
    },
    {
      "type": "Feature",
      "properties": {
        "name": "AKANN"
      },
      "geometry": {
        "type": "Point",
        "coordinates": [
          144.13399166666665,
          43.153213888888885
        ]
      }
    },
    {
      "type": "Feature",
      "properties": {
        "name": "AKAOH"
      },
      "geometry": {
        "type": "Point",
        "coordinates": [
          133.75970833333332,
          34.69473055555555
        ]
      }
    },
    {
      "type": "Feature",
      "properties": {
        "name": "AKAPU"
      },
      "geometry": {
        "type": "Point",
        "coordinates": [
          136.71526944444443,
          34.53220833333333
        ]
      }
    },
    {
      "type": "Feature",
      "properties": {
        "name": "AKARI"
      },
      "geometry": {
        "type": "Point",
        "coordinates": [
          141.1384138888889,
          39.721516666666666
        ]
      }
    },
    {
      "type": "Feature",
      "properties": {
        "name": "AKASE"
      },
      "geometry": {
        "type": "Point",
        "coordinates": [
          130.32147777777777,
          30.009527777777777
        ]
      }
    },
    {
      "type": "Feature",
      "properties": {
        "name": "AKAYU"
      },
      "geometry": {
        "type": "Point",
        "coordinates": [
          139.76139166666667,
          38.068738888888895
        ]
      }
    },
    {
      "type": "Feature",
      "properties": {
        "name": "AKBEN"
      },
      "geometry": {
        "type": "Point",
        "coordinates": [
          139.89145833333333,
          33.15264722222222
        ]
      }
    },
    {
      "type": "Feature",
      "properties": {
        "name": "AKBOX"
      },
      "geometry": {
        "type": "Point",
        "coordinates": [
          131.687475,
          32.05709722222222
        ]
      }
    },
    {
      "type": "Feature",
      "properties": {
        "name": "AKESI"
      },
      "geometry": {
        "type": "Point",
        "coordinates": [
          144.0732138888889,
          42.55455555555555
        ]
      }
    },
    {
      "type": "Feature",
      "properties": {
        "name": "AKIAS"
      },
      "geometry": {
        "type": "Point",
        "coordinates": [
          136.90104722222222,
          38.61719444444444
        ]
      }
    },
    {
      "type": "Feature",
      "properties": {
        "name": "AKIBA"
      },
      "geometry": {
        "type": "Point",
        "coordinates": [
          131.29912777777778,
          25.892286111111112
        ]
      }
    },
    {
      "type": "Feature",
      "properties": {
        "name": "AKILU"
      },
      "geometry": {
        "type": "Point",
        "coordinates": [
          131.73795555555554,
          33.57345
        ]
      }
    },
    {
      "type": "Feature",
      "properties": {
        "name": "AKISU"
      },
      "geometry": {
        "type": "Point",
        "coordinates": [
          161.33333333333334,
          47.550725
        ]
      }
    },
    {
      "type": "Feature",
      "properties": {
        "name": "AKITA"
      },
      "geometry": {
        "type": "Point",
        "coordinates": [
          140.06230833333333,
          39.71156666666667
        ]
      }
    },
    {
      "type": "Feature",
      "properties": {
        "name": "AKLEM"
      },
      "geometry": {
        "type": "Point",
        "coordinates": [
          131.24101666666667,
          32.59800555555556
        ]
      }
    },
    {
      "type": "Feature",
      "properties": {
        "name": "AKLES"
      },
      "geometry": {
        "type": "Point",
        "coordinates": [
          140.67399999999998,
          41.794066666666666
        ]
      }
    },
    {
      "type": "Feature",
      "properties": {
        "name": "AKLIP"
      },
      "geometry": {
        "type": "Point",
        "coordinates": [
          131.01567777777777,
          33.94994444444444
        ]
      }
    },
    {
      "type": "Feature",
      "properties": {
        "name": "AKMEP"
      },
      "geometry": {
        "type": "Point",
        "coordinates": [
          129.7027222222222,
          32.85942222222222
        ]
      }
    },
    {
      "type": "Feature",
      "properties": {
        "name": "AKNAG"
      },
      "geometry": {
        "type": "Point",
        "coordinates": [
          129.84578333333334,
          33.33804722222222
        ]
      }
    },
    {
      "type": "Feature",
      "properties": {
        "name": "AKNED"
      },
      "geometry": {
        "type": "Point",
        "coordinates": [
          139.91088055555556,
          38.72280277777778
        ]
      }
    },
    {
      "type": "Feature",
      "properties": {
        "name": "AKNEP"
      },
      "geometry": {
        "type": "Point",
        "coordinates": [
          143.9851,
          43.81640833333333
        ]
      }
    },
    {
      "type": "Feature",
      "properties": {
        "name": "AKNIS"
      },
      "geometry": {
        "type": "Point",
        "coordinates": [
          131.8328361111111,
          33.423405555555554
        ]
      }
    },
    {
      "type": "Feature",
      "properties": {
        "name": "AKNOM"
      },
      "geometry": {
        "type": "Point",
        "coordinates": [
          137.6395222222222,
          35.972033333333336
        ]
      }
    },
    {
      "type": "Feature",
      "properties": {
        "name": "AKPUN"
      },
      "geometry": {
        "type": "Point",
        "coordinates": [
          135.03859722222222,
          34.61810833333333
        ]
      }
    },
    {
      "type": "Feature",
      "properties": {
        "name": "AKRIT"
      },
      "geometry": {
        "type": "Point",
        "coordinates": [
          142.10805555555555,
          36.06805555555556
        ]
      }
    },
    {
      "type": "Feature",
      "properties": {
        "name": "AKROP"
      },
      "geometry": {
        "type": "Point",
        "coordinates": [
          130.57579166666667,
          33.40241111111111
        ]
      }
    },
    {
      "type": "Feature",
      "properties": {
        "name": "AKSEL"
      },
      "geometry": {
        "type": "Point",
        "coordinates": [
          139.857475,
          34.67764444444444
        ]
      }
    },
    {
      "type": "Feature",
      "properties": {
        "name": "AKSUN"
      },
      "geometry": {
        "type": "Point",
        "coordinates": [
          140.90445833333334,
          45.752075
        ]
      }
    },
    {
      "type": "Feature",
      "properties": {
        "name": "AKTAP"
      },
      "geometry": {
        "type": "Point",
        "coordinates": [
          133.73401666666666,
          30.81166111111111
        ]
      }
    },
    {
      "type": "Feature",
      "properties": {
        "name": "AKTIB"
      },
      "geometry": {
        "type": "Point",
        "coordinates": [
          130.33498333333335,
          33.75577777777778
        ]
      }
    },
    {
      "type": "Feature",
      "properties": {
        "name": "AKTIL"
      },
      "geometry": {
        "type": "Point",
        "coordinates": [
          140.18405555555555,
          37.35006111111111
        ]
      }
    },
    {
      "type": "Feature",
      "properties": {
        "name": "AKUBI"
      },
      "geometry": {
        "type": "Point",
        "coordinates": [
          138.65786944444446,
          32.950475000000004
        ]
      }
    },
    {
      "type": "Feature",
      "properties": {
        "name": "AKUSI"
      },
      "geometry": {
        "type": "Point",
        "coordinates": [
          130.7118861111111,
          25.899786111111112
        ]
      }
    },
    {
      "type": "Feature",
      "properties": {
        "name": "AKUVU"
      },
      "geometry": {
        "type": "Point",
        "coordinates": [
          136.87904444444445,
          34.858466666666665
        ]
      }
    },
    {
      "type": "Feature",
      "properties": {
        "name": "AKVAS"
      },
      "geometry": {
        "type": "Point",
        "coordinates": [
          127.46468055555556,
          29.58699722222222
        ]
      }
    },
    {
      "type": "Feature",
      "properties": {
        "name": "ALATO"
      },
      "geometry": {
        "type": "Point",
        "coordinates": [
          140.09234722222223,
          39.62688333333333
        ]
      }
    },
    {
      "type": "Feature",
      "properties": {
        "name": "ALBAT"
      },
      "geometry": {
        "type": "Point",
        "coordinates": [
          135.4415138888889,
          33.36450277777778
        ]
      }
    },
    {
      "type": "Feature",
      "properties": {
        "name": "ALBAX"
      },
      "geometry": {
        "type": "Point",
        "coordinates": [
          125.32558333333333,
          23.56940833333333
        ]
      }
    },
    {
      "type": "Feature",
      "properties": {
        "name": "ALDEM"
      },
      "geometry": {
        "type": "Point",
        "coordinates": [
          133.56901666666667,
          31.036191666666667
        ]
      }
    },
    {
      "type": "Feature",
      "properties": {
        "name": "ALDEN"
      },
      "geometry": {
        "type": "Point",
        "coordinates": [
          140.25146944444444,
          34.861422222222224
        ]
      }
    },
    {
      "type": "Feature",
      "properties": {
        "name": "ALDET"
      },
      "geometry": {
        "type": "Point",
        "coordinates": [
          140.91233055555557,
          40.91138333333333
        ]
      }
    },
    {
      "type": "Feature",
      "properties": {
        "name": "ALFET"
      },
      "geometry": {
        "type": "Point",
        "coordinates": [
          132.0020027777778,
          33.667075
        ]
      }
    },
    {
      "type": "Feature",
      "properties": {
        "name": "ALGES"
      },
      "geometry": {
        "type": "Point",
        "coordinates": [
          144.33828333333335,
          36.79581944444444
        ]
      }
    },
    {
      "type": "Feature",
      "properties": {
        "name": "ALGIX"
      },
      "geometry": {
        "type": "Point",
        "coordinates": [
          130.09127222222224,
          29.290772222222223
        ]
      }
    },
    {
      "type": "Feature",
      "properties": {
        "name": "ALLIE"
      },
      "geometry": {
        "type": "Point",
        "coordinates": [
          139.85147777777777,
          35.44373611111111
        ]
      }
    },
    {
      "type": "Feature",
      "properties": {
        "name": "ALPUS"
      },
      "geometry": {
        "type": "Point",
        "coordinates": [
          138.29694444444445,
          35.44916666666666
        ]
      }
    },
    {
      "type": "Feature",
      "properties": {
        "name": "ALTAI"
      },
      "geometry": {
        "type": "Point",
        "coordinates": [
          130.36176388888887,
          30.007686111111113
        ]
      }
    },
    {
      "type": "Feature",
      "properties": {
        "name": "ALUYO"
      },
      "geometry": {
        "type": "Point",
        "coordinates": [
          135.12204722222222,
          32.76706111111111
        ]
      }
    },
    {
      "type": "Feature",
      "properties": {
        "name": "AMAGO"
      },
      "geometry": {
        "type": "Point",
        "coordinates": [
          136.29539444444444,
          36.33059166666667
        ]
      }
    },
    {
      "type": "Feature",
      "properties": {
        "name": "AMAHA"
      },
      "geometry": {
        "type": "Point",
        "coordinates": [
          139.90051944444446,
          35.21346944444445
        ]
      }
    },
    {
      "type": "Feature",
      "properties": {
        "name": "AMAKO"
      },
      "geometry": {
        "type": "Point",
        "coordinates": [
          133.17230555555554,
          35.34905555555556
        ]
      }
    },
    {
      "type": "Feature",
      "properties": {
        "name": "AMAMI"
      },
      "geometry": {
        "type": "Point",
        "coordinates": [
          129.58406666666667,
          28.443669444444446
        ]
      }
    },
    {
      "type": "Feature",
      "properties": {
        "name": "AMAOH"
      },
      "geometry": {
        "type": "Point",
        "coordinates": [
          130.1666277777778,
          33.46917777777778
        ]
      }
    },
    {
      "type": "Feature",
      "properties": {
        "name": "AMARB"
      },
      "geometry": {
        "type": "Point",
        "coordinates": [
          134.79499444444446,
          35.637544444444444
        ]
      }
    },
    {
      "type": "Feature",
      "properties": {
        "name": "AMARU"
      },
      "geometry": {
        "type": "Point",
        "coordinates": [
          139.9023388888889,
          38.83304722222223
        ]
      }
    },
    {
      "type": "Feature",
      "properties": {
        "name": "AMBER"
      },
      "geometry": {
        "type": "Point",
        "coordinates": [
          135.34518055555557,
          34.49505555555556
        ]
      }
    },
    {
      "type": "Feature",
      "properties": {
        "name": "AMEZY"
      },
      "geometry": {
        "type": "Point",
        "coordinates": [
          135.31409166666668,
          34.474247222222225
        ]
      }
    },
    {
      "type": "Feature",
      "properties": {
        "name": "AMIDA"
      },
      "geometry": {
        "type": "Point",
        "coordinates": [
          138.31780555555557,
          35.871541666666666
        ]
      }
    },
    {
      "type": "Feature",
      "properties": {
        "name": "AMITY"
      },
      "geometry": {
        "type": "Point",
        "coordinates": [
          140.25737222222222,
          35.97173611111111
        ]
      }
    },
    {
      "type": "Feature",
      "properties": {
        "name": "AMMEK"
      },
      "geometry": {
        "type": "Point",
        "coordinates": [
          127.09378333333333,
          25.59815833333333
        ]
      }
    },
    {
      "type": "Feature",
      "properties": {
        "name": "AMMON"
      },
      "geometry": {
        "type": "Point",
        "coordinates": [
          130.61450555555555,
          31.178544444444444
        ]
      }
    },
    {
      "type": "Feature",
      "properties": {
        "name": "AMURO"
      },
      "geometry": {
        "type": "Point",
        "coordinates": [
          133.34072222222224,
          34.691916666666664
        ]
      }
    },
    {
      "type": "Feature",
      "properties": {
        "name": "AMVUS"
      },
      "geometry": {
        "type": "Point",
        "coordinates": [
          136.5115361111111,
          33.17726666666666
        ]
      }
    },
    {
      "type": "Feature",
      "properties": {
        "name": "ANBIM"
      },
      "geometry": {
        "type": "Point",
        "coordinates": [
          130.48958055555553,
          33.9971
        ]
      }
    },
    {
      "type": "Feature",
      "properties": {
        "name": "ANBOL"
      },
      "geometry": {
        "type": "Point",
        "coordinates": [
          129.80112222222223,
          28.591369444444442
        ]
      }
    },
    {
      "type": "Feature",
      "properties": {
        "name": "ANCOU"
      },
      "geometry": {
        "type": "Point",
        "coordinates": [
          139.6701138888889,
          38.800891666666665
        ]
      }
    },
    {
      "type": "Feature",
      "properties": {
        "name": "ANDAS"
      },
      "geometry": {
        "type": "Point",
        "coordinates": [
          144.08956666666668,
          43.035599999999995
        ]
      }
    },
    {
      "type": "Feature",
      "properties": {
        "name": "ANDEN"
      },
      "geometry": {
        "type": "Point",
        "coordinates": [
          140.09297777777778,
          35.204972222222224
        ]
      }
    },
    {
      "type": "Feature",
      "properties": {
        "name": "ANDOL"
      },
      "geometry": {
        "type": "Point",
        "coordinates": [
          133.0,
          37.66611111111111
        ]
      }
    },
    {
      "type": "Feature",
      "properties": {
        "name": "ANEMO"
      },
      "geometry": {
        "type": "Point",
        "coordinates": [
          140.99731944444443,
          37.975972222222225
        ]
      }
    },
    {
      "type": "Feature",
      "properties": {
        "name": "ANGAG"
      },
      "geometry": {
        "type": "Point",
        "coordinates": [
          130.57578333333333,
          33.402425
        ]
      }
    },
    {
      "type": "Feature",
      "properties": {
        "name": "ANGAI"
      },
      "geometry": {
        "type": "Point",
        "coordinates": [
          123.19596111111112,
          24.519222222222222
        ]
      }
    },
    {
      "type": "Feature",
      "properties": {
        "name": "ANIMO"
      },
      "geometry": {
        "type": "Point",
        "coordinates": [
          143.67925,
          45.19886944444444
        ]
      }
    },
    {
      "type": "Feature",
      "properties": {
        "name": "ANJYO"
      },
      "geometry": {
        "type": "Point",
        "coordinates": [
          137.10245555555554,
          34.99967222222222
        ]
      }
    },
    {
      "type": "Feature",
      "properties": {
        "name": "ANKAL"
      },
      "geometry": {
        "type": "Point",
        "coordinates": [
          139.4537,
          35.65584166666667
        ]
      }
    },
    {
      "type": "Feature",
      "properties": {
        "name": "ANKOH"
      },
      "geometry": {
        "type": "Point",
        "coordinates": [
          140.8859111111111,
          36.244172222222225
        ]
      }
    },
    {
      "type": "Feature",
      "properties": {
        "name": "ANLAP"
      },
      "geometry": {
        "type": "Point",
        "coordinates": [
          143.99559166666666,
          43.21024166666667
        ]
      }
    },
    {
      "type": "Feature",
      "properties": {
        "name": "ANLIK"
      },
      "geometry": {
        "type": "Point",
        "coordinates": [
          130.129775,
          31.591213888888888
        ]
      }
    },
    {
      "type": "Feature",
      "properties": {
        "name": "ANNIE"
      },
      "geometry": {
        "type": "Point",
        "coordinates": [
          125.0167111111111,
          25.310477777777777
        ]
      }
    },
    {
      "type": "Feature",
      "properties": {
        "name": "ANNON"
      },
      "geometry": {
        "type": "Point",
        "coordinates": [
          140.0792361111111,
          38.629269444444446
        ]
      }
    },
    {
      "type": "Feature",
      "properties": {
        "name": "ANOBU"
      },
      "geometry": {
        "type": "Point",
        "coordinates": [
          139.41824444444444,
          35.62875555555556
        ]
      }
    },
    {
      "type": "Feature",
      "properties": {
        "name": "ANOLA"
      },
      "geometry": {
        "type": "Point",
        "coordinates": [
          140.9380277777778,
          39.25685277777778
        ]
      }
    },
    {
      "type": "Feature",
      "properties": {
        "name": "ANOXA"
      },
      "geometry": {
        "type": "Point",
        "coordinates": [
          129.377025,
          28.988758333333333
        ]
      }
    },
    {
      "type": "Feature",
      "properties": {
        "name": "ANPAL"
      },
      "geometry": {
        "type": "Point",
        "coordinates": [
          124.19886944444445,
          24.31515277777778
        ]
      }
    },
    {
      "type": "Feature",
      "properties": {
        "name": "ANPAN"
      },
      "geometry": {
        "type": "Point",
        "coordinates": [
          133.84681111111112,
          33.41876111111111
        ]
      }
    },
    {
      "type": "Feature",
      "properties": {
        "name": "ANPEP"
      },
      "geometry": {
        "type": "Point",
        "coordinates": [
          131.6843638888889,
          34.703408333333336
        ]
      }
    },
    {
      "type": "Feature",
      "properties": {
        "name": "ANREM"
      },
      "geometry": {
        "type": "Point",
        "coordinates": [
          130.8346138888889,
          30.342377777777777
        ]
      }
    },
    {
      "type": "Feature",
      "properties": {
        "name": "ANRIN"
      },
      "geometry": {
        "type": "Point",
        "coordinates": [
          135.66934999999998,
          34.50881388888889
        ]
      }
    },
    {
      "type": "Feature",
      "properties": {
        "name": "ANROX"
      },
      "geometry": {
        "type": "Point",
        "coordinates": [
          136.96039444444443,
          34.655
        ]
      }
    },
    {
      "type": "Feature",
      "properties": {
        "name": "ANSAD"
      },
      "geometry": {
        "type": "Point",
        "coordinates": [
          141.7123361111111,
          34.69664444444444
        ]
      }
    },
    {
      "type": "Feature",
      "properties": {
        "name": "ANSUM"
      },
      "geometry": {
        "type": "Point",
        "coordinates": [
          134.99535555555553,
          34.11631388888889
        ]
      }
    },
    {
      "type": "Feature",
      "properties": {
        "name": "ANZAC"
      },
      "geometry": {
        "type": "Point",
        "coordinates": [
          139.69630833333335,
          34.84133888888889
        ]
      }
    },
    {
      "type": "Feature",
      "properties": {
        "name": "AOBAR"
      },
      "geometry": {
        "type": "Point",
        "coordinates": [
          141.12311944444446,
          38.01726111111111
        ]
      }
    },
    {
      "type": "Feature",
      "properties": {
        "name": "AOIKE"
      },
      "geometry": {
        "type": "Point",
        "coordinates": [
          142.53703055555556,
          43.536252777777776
        ]
      }
    },
    {
      "type": "Feature",
      "properties": {
        "name": "AOIKU"
      },
      "geometry": {
        "type": "Point",
        "coordinates": [
          138.34625555555556,
          34.44293611111111
        ]
      }
    },
    {
      "type": "Feature",
      "properties": {
        "name": "AOMORI"
      },
      "geometry": {
        "type": "Point",
        "coordinates": [
          140.70533333333333,
          40.738791666666664
        ]
      }
    },
    {
      "type": "Feature",
      "properties": {
        "name": "AONAE"
      },
      "geometry": {
        "type": "Point",
        "coordinates": [
          139.7460111111111,
          42.00632777777778
        ]
      }
    },
    {
      "type": "Feature",
      "properties": {
        "name": "AONII"
      },
      "geometry": {
        "type": "Point",
        "coordinates": [
          133.96053333333333,
          34.80032222222222
        ]
      }
    },
    {
      "type": "Feature",
      "properties": {
        "name": "APELA"
      },
      "geometry": {
        "type": "Point",
        "coordinates": [
          129.2332888888889,
          34.723108333333336
        ]
      }
    },
    {
      "type": "Feature",
      "properties": {
        "name": "APILU"
      },
      "geometry": {
        "type": "Point",
        "coordinates": [
          136.65623333333335,
          35.29830277777778
        ]
      }
    },
    {
      "type": "Feature",
      "properties": {
        "name": "APIOS"
      },
      "geometry": {
        "type": "Point",
        "coordinates": [
          141.28260555555556,
          41.06092777777778
        ]
      }
    },
    {
      "type": "Feature",
      "properties": {
        "name": "APITO"
      },
      "geometry": {
        "type": "Point",
        "coordinates": [
          124.0,
          29.583333333333332
        ]
      }
    },
    {
      "type": "Feature",
      "properties": {
        "name": "APOGU"
      },
      "geometry": {
        "type": "Point",
        "coordinates": [
          131.9410777777778,
          33.472233333333335
        ]
      }
    },
    {
      "type": "Feature",
      "properties": {
        "name": "APOII"
      },
      "geometry": {
        "type": "Point",
        "coordinates": [
          143.0703611111111,
          41.69736111111111
        ]
      }
    },
    {
      "type": "Feature",
      "properties": {
        "name": "APOLO"
      },
      "geometry": {
        "type": "Point",
        "coordinates": [
          139.9374388888889,
          35.32203333333334
        ]
      }
    },
    {
      "type": "Feature",
      "properties": {
        "name": "APORA"
      },
      "geometry": {
        "type": "Point",
        "coordinates": [
          134.33339722222223,
          34.20151944444445
        ]
      }
    },
    {
      "type": "Feature",
      "properties": {
        "name": "AQTOH"
      },
      "geometry": {
        "type": "Point",
        "coordinates": [
          136.86116388888888,
          35.354647222222226
        ]
      }
    },
    {
      "type": "Feature",
      "properties": {
        "name": "AQUOS"
      },
      "geometry": {
        "type": "Point",
        "coordinates": [
          141.16180277777778,
          35.20826111111111
        ]
      }
    },
    {
      "type": "Feature",
      "properties": {
        "name": "ARAKA"
      },
      "geometry": {
        "type": "Point",
        "coordinates": [
          139.84496666666666,
          35.64689722222222
        ]
      }
    },
    {
      "type": "Feature",
      "properties": {
        "name": "ARAOH"
      },
      "geometry": {
        "type": "Point",
        "coordinates": [
          130.5229666666667,
          33.017152777777774
        ]
      }
    },
    {
      "type": "Feature",
      "properties": {
        "name": "ARAPA"
      },
      "geometry": {
        "type": "Point",
        "coordinates": [
          141.6905138888889,
          42.669552777777774
        ]
      }
    },
    {
      "type": "Feature",
      "properties": {
        "name": "ARASI"
      },
      "geometry": {
        "type": "Point",
        "coordinates": [
          135.79838333333333,
          35.18206111111111
        ]
      }
    },
    {
      "type": "Feature",
      "properties": {
        "name": "ARENA"
      },
      "geometry": {
        "type": "Point",
        "coordinates": [
          139.6163138888889,
          35.50712222222222
        ]
      }
    },
    {
      "type": "Feature",
      "properties": {
        "name": "AREPO"
      },
      "geometry": {
        "type": "Point",
        "coordinates": [
          143.81677222222223,
          41.49363888888889
        ]
      }
    },
    {
      "type": "Feature",
      "properties": {
        "name": "ARESU"
      },
      "geometry": {
        "type": "Point",
        "coordinates": [
          136.77100000000002,
          35.11338333333333
        ]
      }
    },
    {
      "type": "Feature",
      "properties": {
        "name": "ARGUY"
      },
      "geometry": {
        "type": "Point",
        "coordinates": [
          125.59848055555555,
          24.781352777777776
        ]
      }
    },
    {
      "type": "Feature",
      "properties": {
        "name": "ARIEL"
      },
      "geometry": {
        "type": "Point",
        "coordinates": [
          136.7404861111111,
          34.66051111111111
        ]
      }
    },
    {
      "type": "Feature",
      "properties": {
        "name": "ARIES"
      },
      "geometry": {
        "type": "Point",
        "coordinates": [
          140.25163333333333,
          35.93538333333333
        ]
      }
    },
    {
      "type": "Feature",
      "properties": {
        "name": "ARIGI"
      },
      "geometry": {
        "type": "Point",
        "coordinates": [
          133.15568611111112,
          34.19542777777777
        ]
      }
    },
    {
      "type": "Feature",
      "properties": {
        "name": "ARIKA"
      },
      "geometry": {
        "type": "Point",
        "coordinates": [
          139.92768611111111,
          40.443527777777774
        ]
      }
    },
    {
      "type": "Feature",
      "properties": {
        "name": "ARIMA"
      },
      "geometry": {
        "type": "Point",
        "coordinates": [
          135.10594722222223,
          34.7563
        ]
      }
    },
    {
      "type": "Feature",
      "properties": {
        "name": "ARLON"
      },
      "geometry": {
        "type": "Point",
        "coordinates": [
          139.983275,
          35.257022222222226
        ]
      }
    },
    {
      "type": "Feature",
      "properties": {
        "name": "AROSA"
      },
      "geometry": {
        "type": "Point",
        "coordinates": [
          140.69924722222223,
          34.70047777777778
        ]
      }
    },
    {
      "type": "Feature",
      "properties": {
        "name": "AROSI"
      },
      "geometry": {
        "type": "Point",
        "coordinates": [
          131.05571111111112,
          30.56916111111111
        ]
      }
    },
    {
      "type": "Feature",
      "properties": {
        "name": "ARSAR"
      },
      "geometry": {
        "type": "Point",
        "coordinates": [
          131.24225833333333,
          34.09215555555556
        ]
      }
    },
    {
      "type": "Feature",
      "properties": {
        "name": "ARTIC"
      },
      "geometry": {
        "type": "Point",
        "coordinates": [
          138.80456944444447,
          34.715558333333334
        ]
      }
    },
    {
      "type": "Feature",
      "properties": {
        "name": "ARUTU"
      },
      "geometry": {
        "type": "Point",
        "coordinates": [
          129.70106944444444,
          33.679316666666665
        ]
      }
    },
    {
      "type": "Feature",
      "properties": {
        "name": "ASABI"
      },
      "geometry": {
        "type": "Point",
        "coordinates": [
          129.67645833333333,
          28.365025000000003
        ]
      }
    },
    {
      "type": "Feature",
      "properties": {
        "name": "ASAGI"
      },
      "geometry": {
        "type": "Point",
        "coordinates": [
          134.75065833333332,
          35.04367777777777
        ]
      }
    },
    {
      "type": "Feature",
      "properties": {
        "name": "ASAHIKAWA"
      },
      "geometry": {
        "type": "Point",
        "coordinates": [
          142.45684722222222,
          43.66726388888889
        ]
      }
    },
    {
      "type": "Feature",
      "properties": {
        "name": "ASAJI"
      },
      "geometry": {
        "type": "Point",
        "coordinates": [
          133.1455638888889,
          36.11538888888889
        ]
      }
    },
    {
      "type": "Feature",
      "properties": {
        "name": "ASAMA"
      },
      "geometry": {
        "type": "Point",
        "coordinates": [
          136.8954472222222,
          34.502605555555554
        ]
      }
    },
    {
      "type": "Feature",
      "properties": {
        "name": "ASAMI"
      },
      "geometry": {
        "type": "Point",
        "coordinates": [
          134.81160277777778,
          34.13274722222222
        ]
      }
    },
    {
      "type": "Feature",
      "properties": {
        "name": "ASAMU"
      },
      "geometry": {
        "type": "Point",
        "coordinates": [
          140.76855277777778,
          40.940263888888886
        ]
      }
    },
    {
      "type": "Feature",
      "properties": {
        "name": "ASANO"
      },
      "geometry": {
        "type": "Point",
        "coordinates": [
          134.64657777777776,
          34.79289166666666
        ]
      }
    },
    {
      "type": "Feature",
      "properties": {
        "name": "ASARI"
      },
      "geometry": {
        "type": "Point",
        "coordinates": [
          131.21453333333332,
          33.89416111111111
        ]
      }
    },
    {
      "type": "Feature",
      "properties": {
        "name": "ASATO"
      },
      "geometry": {
        "type": "Point",
        "coordinates": [
          128.50408055555556,
          27.181716666666667
        ]
      }
    },
    {
      "type": "Feature",
      "properties": {
        "name": "ASEDA"
      },
      "geometry": {
        "type": "Point",
        "coordinates": [
          139.1588138888889,
          25.00433888888889
        ]
      }
    },
    {
      "type": "Feature",
      "properties": {
        "name": "ASEKI"
      },
      "geometry": {
        "type": "Point",
        "coordinates": [
          140.02061111111112,
          36.085208333333334
        ]
      }
    },
    {
      "type": "Feature",
      "properties": {
        "name": "ASERO"
      },
      "geometry": {
        "type": "Point",
        "coordinates": [
          130.8430138888889,
          30.688083333333335
        ]
      }
    },
    {
      "type": "Feature",
      "properties": {
        "name": "ASESU"
      },
      "geometry": {
        "type": "Point",
        "coordinates": [
          129.812475,
          33.884413888888886
        ]
      }
    },
    {
      "type": "Feature",
      "properties": {
        "name": "ASHRA"
      },
      "geometry": {
        "type": "Point",
        "coordinates": [
          140.49409722222222,
          37.254577777777776
        ]
      }
    },
    {
      "type": "Feature",
      "properties": {
        "name": "ASIBE"
      },
      "geometry": {
        "type": "Point",
        "coordinates": [
          142.28359166666667,
          43.45110555555556
        ]
      }
    },
    {
      "type": "Feature",
      "properties": {
        "name": "ASIMO"
      },
      "geometry": {
        "type": "Point",
        "coordinates": [
          133.71623055555554,
          34.68838888888889
        ]
      }
    },
    {
      "type": "Feature",
      "properties": {
        "name": "ASIRI"
      },
      "geometry": {
        "type": "Point",
        "coordinates": [
          141.52513611111112,
          42.95406944444445
        ]
      }
    },
    {
      "type": "Feature",
      "properties": {
        "name": "ASITA"
      },
      "geometry": {
        "type": "Point",
        "coordinates": [
          139.90461666666667,
          33.22334444444444
        ]
      }
    },
    {
      "type": "Feature",
      "properties": {
        "name": "ASONO"
      },
      "geometry": {
        "type": "Point",
        "coordinates": [
          131.2470611111111,
          33.01614166666667
        ]
      }
    },
    {
      "type": "Feature",
      "properties": {
        "name": "ASOVO"
      },
      "geometry": {
        "type": "Point",
        "coordinates": [
          128.72088055555557,
          32.88427222222222
        ]
      }
    },
    {
      "type": "Feature",
      "properties": {
        "name": "ASPEL"
      },
      "geometry": {
        "type": "Point",
        "coordinates": [
          131.16156666666666,
          33.878480555555555
        ]
      }
    },
    {
      "type": "Feature",
      "properties": {
        "name": "ASPEN"
      },
      "geometry": {
        "type": "Point",
        "coordinates": [
          140.50780555555556,
          35.58083333333334
        ]
      }
    },
    {
      "type": "Feature",
      "properties": {
        "name": "ASTAK"
      },
      "geometry": {
        "type": "Point",
        "coordinates": [
          131.09129166666668,
          30.00616388888889
        ]
      }
    },
    {
      "type": "Feature",
      "properties": {
        "name": "ASTER"
      },
      "geometry": {
        "type": "Point",
        "coordinates": [
          142.53303333333335,
          39.23124722222222
        ]
      }
    },
    {
      "type": "Feature",
      "properties": {
        "name": "ASTON"
      },
      "geometry": {
        "type": "Point",
        "coordinates": [
          140.42184166666667,
          35.72905277777778
        ]
      }
    },
    {
      "type": "Feature",
      "properties": {
        "name": "ASTRA"
      },
      "geometry": {
        "type": "Point",
        "coordinates": [
          140.30005555555556,
          35.86863888888889
        ]
      }
    },
    {
      "type": "Feature",
      "properties": {
        "name": "ASUDA"
      },
      "geometry": {
        "type": "Point",
        "coordinates": [
          141.57702777777777,
          40.5936
        ]
      }
    },
    {
      "type": "Feature",
      "properties": {
        "name": "ASUKA"
      },
      "geometry": {
        "type": "Point",
        "coordinates": [
          136.03186944444445,
          34.76742222222222
        ]
      }
    },
    {
      "type": "Feature",
      "properties": {
        "name": "ATAMI"
      },
      "geometry": {
        "type": "Point",
        "coordinates": [
          139.26768611111112,
          34.94682777777778
        ]
      }
    },
    {
      "type": "Feature",
      "properties": {
        "name": "ATENA"
      },
      "geometry": {
        "type": "Point",
        "coordinates": [
          136.7010388888889,
          34.84128055555556
        ]
      }
    },
    {
      "type": "Feature",
      "properties": {
        "name": "ATENZ"
      },
      "geometry": {
        "type": "Point",
        "coordinates": [
          133.06614166666668,
          34.34283611111111
        ]
      }
    },
    {
      "type": "Feature",
      "properties": {
        "name": "ATERA"
      },
      "geometry": {
        "type": "Point",
        "coordinates": [
          140.29423055555554,
          38.26494722222222
        ]
      }
    },
    {
      "type": "Feature",
      "properties": {
        "name": "ATGOL"
      },
      "geometry": {
        "type": "Point",
        "coordinates": [
          133.11278055555556,
          33.78961944444444
        ]
      }
    },
    {
      "type": "Feature",
      "properties": {
        "name": "ATIGO"
      },
      "geometry": {
        "type": "Point",
        "coordinates": [
          150.31666666666666,
          21.0
        ]
      }
    },
    {
      "type": "Feature",
      "properties": {
        "name": "ATKAS"
      },
      "geometry": {
        "type": "Point",
        "coordinates": [
          134.7752388888889,
          34.566158333333334
        ]
      }
    },
    {
      "type": "Feature",
      "properties": {
        "name": "ATKES"
      },
      "geometry": {
        "type": "Point",
        "coordinates": [
          140.0820861111111,
          40.230647222222224
        ]
      }
    },
    {
      "type": "Feature",
      "properties": {
        "name": "ATLER"
      },
      "geometry": {
        "type": "Point",
        "coordinates": [
          130.21464999999998,
          33.72248888888889
        ]
      }
    },
    {
      "type": "Feature",
      "properties": {
        "name": "ATLOT"
      },
      "geometry": {
        "type": "Point",
        "coordinates": [
          135.31461111111113,
          34.47459444444445
        ]
      }
    },
    {
      "type": "Feature",
      "properties": {
        "name": "ATLUV"
      },
      "geometry": {
        "type": "Point",
        "coordinates": [
          130.61645277777777,
          31.97974722222222
        ]
      }
    },
    {
      "type": "Feature",
      "properties": {
        "name": "ATMIK"
      },
      "geometry": {
        "type": "Point",
        "coordinates": [
          133.69171111111112,
          35.42061388888889
        ]
      }
    },
    {
      "type": "Feature",
      "properties": {
        "name": "ATMUG"
      },
      "geometry": {
        "type": "Point",
        "coordinates": [
          134.12706666666668,
          34.558322222222216
        ]
      }
    },
    {
      "type": "Feature",
      "properties": {
        "name": "ATNAP"
      },
      "geometry": {
        "type": "Point",
        "coordinates": [
          139.05501944444447,
          38.027186111111114
        ]
      }
    },
    {
      "type": "Feature",
      "properties": {
        "name": "ATNOX"
      },
      "geometry": {
        "type": "Point",
        "coordinates": [
          129.8611388888889,
          30.343216666666667
        ]
      }
    },
    {
      "type": "Feature",
      "properties": {
        "name": "ATOTI"
      },
      "geometry": {
        "type": "Point",
        "coordinates": [
          125.19820833333334,
          30.003583333333335
        ]
      }
    },
    {
      "type": "Feature",
      "properties": {
        "name": "ATPOD"
      },
      "geometry": {
        "type": "Point",
        "coordinates": [
          133.6418611111111,
          35.68196388888889
        ]
      }
    },
    {
      "type": "Feature",
      "properties": {
        "name": "ATRUK"
      },
      "geometry": {
        "type": "Point",
        "coordinates": [
          130.613575,
          32.07383611111111
        ]
      }
    },
    {
      "type": "Feature",
      "properties": {
        "name": "ATSAG"
      },
      "geometry": {
        "type": "Point",
        "coordinates": [
          129.70291666666665,
          33.664775
        ]
      }
    },
    {
      "type": "Feature",
      "properties": {
        "name": "ATSOP"
      },
      "geometry": {
        "type": "Point",
        "coordinates": [
          131.12696666666668,
          30.529183333333332
        ]
      }
    },
    {
      "type": "Feature",
      "properties": {
        "name": "ATUMI"
      },
      "geometry": {
        "type": "Point",
        "coordinates": [
          139.405975,
          38.63706666666667
        ]
      }
    },
    {
      "type": "Feature",
      "properties": {
        "name": "ATVID"
      },
      "geometry": {
        "type": "Point",
        "coordinates": [
          134.93475,
          34.30316666666666
        ]
      }
    },
    {
      "type": "Feature",
      "properties": {
        "name": "AVBEK"
      },
      "geometry": {
        "type": "Point",
        "coordinates": [
          131.0178388888889,
          33.929341666666666
        ]
      }
    },
    {
      "type": "Feature",
      "properties": {
        "name": "AVBET"
      },
      "geometry": {
        "type": "Point",
        "coordinates": [
          145.46666666666667,
          36.142319444444446
        ]
      }
    },
    {
      "type": "Feature",
      "properties": {
        "name": "AVDAK"
      },
      "geometry": {
        "type": "Point",
        "coordinates": [
          133.2174611111111,
          34.65597222222222
        ]
      }
    },
    {
      "type": "Feature",
      "properties": {
        "name": "AVDOX"
      },
      "geometry": {
        "type": "Point",
        "coordinates": [
          135.01541111111112,
          34.27336666666667
        ]
      }
    },
    {
      "type": "Feature",
      "properties": {
        "name": "AVEEY"
      },
      "geometry": {
        "type": "Point",
        "coordinates": [
          140.36610277777777,
          34.69885833333333
        ]
      }
    },
    {
      "type": "Feature",
      "properties": {
        "name": "AVGOK"
      },
      "geometry": {
        "type": "Point",
        "coordinates": [
          138.24651944444443,
          43.60225833333333
        ]
      }
    },
    {
      "type": "Feature",
      "properties": {
        "name": "AVION"
      },
      "geometry": {
        "type": "Point",
        "coordinates": [
          139.85152777777776,
          35.41034444444444
        ]
      }
    },
    {
      "type": "Feature",
      "properties": {
        "name": "AVKAM"
      },
      "geometry": {
        "type": "Point",
        "coordinates": [
          132.81605000000002,
          33.032325
        ]
      }
    },
    {
      "type": "Feature",
      "properties": {
        "name": "AVKUL"
      },
      "geometry": {
        "type": "Point",
        "coordinates": [
          134.06074444444445,
          34.52649722222222
        ]
      }
    },
    {
      "type": "Feature",
      "properties": {
        "name": "AVLAS"
      },
      "geometry": {
        "type": "Point",
        "coordinates": [
          130.12093611111112,
          24.355641666666667
        ]
      }
    },
    {
      "type": "Feature",
      "properties": {
        "name": "AVLEX"
      },
      "geometry": {
        "type": "Point",
        "coordinates": [
          134.43649166666668,
          34.62018888888889
        ]
      }
    },
    {
      "type": "Feature",
      "properties": {
        "name": "AVMIT"
      },
      "geometry": {
        "type": "Point",
        "coordinates": [
          134.3578472222222,
          34.35624166666667
        ]
      }
    },
    {
      "type": "Feature",
      "properties": {
        "name": "AVMOM"
      },
      "geometry": {
        "type": "Point",
        "coordinates": [
          132.50432777777777,
          32.82559166666667
        ]
      }
    },
    {
      "type": "Feature",
      "properties": {
        "name": "AVNON"
      },
      "geometry": {
        "type": "Point",
        "coordinates": [
          136.16557777777777,
          36.124233333333336
        ]
      }
    },
    {
      "type": "Feature",
      "properties": {
        "name": "AVNUT"
      },
      "geometry": {
        "type": "Point",
        "coordinates": [
          133.5459138888889,
          33.78227222222222
        ]
      }
    },
    {
      "type": "Feature",
      "properties": {
        "name": "AWAJI"
      },
      "geometry": {
        "type": "Point",
        "coordinates": [
          134.71294166666667,
          34.27030277777778
        ]
      }
    },
    {
      "type": "Feature",
      "properties": {
        "name": "AWARA"
      },
      "geometry": {
        "type": "Point",
        "coordinates": [
          136.09644166666666,
          36.299819444444445
        ]
      }
    },
    {
      "type": "Feature",
      "properties": {
        "name": "AWASI"
      },
      "geometry": {
        "type": "Point",
        "coordinates": [
          139.39841666666666,
          38.405499999999996
        ]
      }
    },
    {
      "type": "Feature",
      "properties": {
        "name": "AWAZU"
      },
      "geometry": {
        "type": "Point",
        "coordinates": [
          136.29361944444443,
          36.32961944444445
        ]
      }
    },
    {
      "type": "Feature",
      "properties": {
        "name": "AXELA"
      },
      "geometry": {
        "type": "Point",
        "coordinates": [
          132.92633333333333,
          34.34288888888889
        ]
      }
    },
    {
      "type": "Feature",
      "properties": {
        "name": "AXIZU"
      },
      "geometry": {
        "type": "Point",
        "coordinates": [
          139.8216,
          35.485925
        ]
      }
    },
    {
      "type": "Feature",
      "properties": {
        "name": "AYAGU"
      },
      "geometry": {
        "type": "Point",
        "coordinates": [
          125.12029444444444,
          24.917
        ]
      }
    },
    {
      "type": "Feature",
      "properties": {
        "name": "AYAKA"
      },
      "geometry": {
        "type": "Point",
        "coordinates": [
          123.59205,
          24.40413611111111
        ]
      }
    },
    {
      "type": "Feature",
      "properties": {
        "name": "AYAME"
      },
      "geometry": {
        "type": "Point",
        "coordinates": [
          134.45391666666666,
          34.60046944444444
        ]
      }
    },
    {
      "type": "Feature",
      "properties": {
        "name": "AYANE"
      },
      "geometry": {
        "type": "Point",
        "coordinates": [
          140.3125138888889,
          39.52494444444444
        ]
      }
    },
    {
      "type": "Feature",
      "properties": {
        "name": "AYANO"
      },
      "geometry": {
        "type": "Point",
        "coordinates": [
          136.3936361111111,
          34.09611944444445
        ]
      }
    },
    {
      "type": "Feature",
      "properties": {
        "name": "AZAMA"
      },
      "geometry": {
        "type": "Point",
        "coordinates": [
          127.800825,
          26.160866666666664
        ]
      }
    },
    {
      "type": "Feature",
      "properties": {
        "name": "AZEFU"
      },
      "geometry": {
        "type": "Point",
        "coordinates": [
          128.643125,
          27.675975
        ]
      }
    },
    {
      "type": "Feature",
      "properties": {
        "name": "AZUKI"
      },
      "geometry": {
        "type": "Point",
        "coordinates": [
          127.581,
          32.401916666666665
        ]
      }
    },
    {
      "type": "Feature",
      "properties": {
        "name": "AZUMI"
      },
      "geometry": {
        "type": "Point",
        "coordinates": [
          137.90913333333333,
          36.48059722222222
        ]
      }
    },
    {
      "type": "Feature",
      "properties": {
        "name": "AZURE"
      },
      "geometry": {
        "type": "Point",
        "coordinates": [
          139.83102222222223,
          35.472633333333334
        ]
      }
    },
    {
      "type": "Feature",
      "properties": {
        "name": "BAARU"
      },
      "geometry": {
        "type": "Point",
        "coordinates": [
          132.46522499999998,
          35.251416666666664
        ]
      }
    },
    {
      "type": "Feature",
      "properties": {
        "name": "BACCO"
      },
      "geometry": {
        "type": "Point",
        "coordinates": [
          139.40876111111112,
          38.37219722222222
        ]
      }
    },
    {
      "type": "Feature",
      "properties": {
        "name": "BACON"
      },
      "geometry": {
        "type": "Point",
        "coordinates": [
          140.2041861111111,
          35.53195
        ]
      }
    },
    {
      "type": "Feature",
      "properties": {
        "name": "BAFFY"
      },
      "geometry": {
        "type": "Point",
        "coordinates": [
          139.97531388888888,
          34.345111111111116
        ]
      }
    },
    {
      "type": "Feature",
      "properties": {
        "name": "BAHAN"
      },
      "geometry": {
        "type": "Point",
        "coordinates": [
          128.799275,
          32.57858055555556
        ]
      }
    },
    {
      "type": "Feature",
      "properties": {
        "name": "BAIEN"
      },
      "geometry": {
        "type": "Point",
        "coordinates": [
          131.84993611111113,
          33.62233055555556
        ]
      }
    },
    {
      "type": "Feature",
      "properties": {
        "name": "BAJYO"
      },
      "geometry": {
        "type": "Point",
        "coordinates": [
          139.19234166666666,
          37.948699999999995
        ]
      }
    },
    {
      "type": "Feature",
      "properties": {
        "name": "BALAN"
      },
      "geometry": {
        "type": "Point",
        "coordinates": [
          139.9910583333333,
          35.60490277777778
        ]
      }
    },
    {
      "type": "Feature",
      "properties": {
        "name": "BALAS"
      },
      "geometry": {
        "type": "Point",
        "coordinates": [
          124.17918333333334,
          24.312880555555555
        ]
      }
    },
    {
      "type": "Feature",
      "properties": {
        "name": "BALIE"
      },
      "geometry": {
        "type": "Point",
        "coordinates": [
          132.20010277777777,
          33.91531388888889
        ]
      }
    },
    {
      "type": "Feature",
      "properties": {
        "name": "BALSA"
      },
      "geometry": {
        "type": "Point",
        "coordinates": [
          134.91465555555556,
          34.03650277777778
        ]
      }
    },
    {
      "type": "Feature",
      "properties": {
        "name": "BAMBI"
      },
      "geometry": {
        "type": "Point",
        "coordinates": [
          141.73574166666666,
          42.516330555555555
        ]
      }
    },
    {
      "type": "Feature",
      "properties": {
        "name": "BAMBO"
      },
      "geometry": {
        "type": "Point",
        "coordinates": [
          132.88383055555556,
          34.31326388888888
        ]
      }
    },
    {
      "type": "Feature",
      "properties": {
        "name": "BANBA"
      },
      "geometry": {
        "type": "Point",
        "coordinates": [
          143.25100833333335,
          42.65371111111111
        ]
      }
    },
    {
      "type": "Feature",
      "properties": {
        "name": "BANDO"
      },
      "geometry": {
        "type": "Point",
        "coordinates": [
          140.00700555555557,
          35.98880833333333
        ]
      }
    },
    {
      "type": "Feature",
      "properties": {
        "name": "BANKE"
      },
      "geometry": {
        "type": "Point",
        "coordinates": [
          141.2599361111111,
          43.049616666666665
        ]
      }
    },
    {
      "type": "Feature",
      "properties": {
        "name": "BANNA"
      },
      "geometry": {
        "type": "Point",
        "coordinates": [
          124.06946944444444,
          24.496283333333334
        ]
      }
    },
    {
      "type": "Feature",
      "properties": {
        "name": "BANSU"
      },
      "geometry": {
        "type": "Point",
        "coordinates": [
          141.642425,
          43.066325
        ]
      }
    },
    {
      "type": "Feature",
      "properties": {
        "name": "BANTA"
      },
      "geometry": {
        "type": "Point",
        "coordinates": [
          130.11358888888887,
          28.35241388888889
        ]
      }
    },
    {
      "type": "Feature",
      "properties": {
        "name": "BARBA"
      },
      "geometry": {
        "type": "Point",
        "coordinates": [
          131.3336527777778,
          32.88140833333333
        ]
      }
    },
    {
      "type": "Feature",
      "properties": {
        "name": "BARON"
      },
      "geometry": {
        "type": "Point",
        "coordinates": [
          141.01999166666667,
          35.76417222222222
        ]
      }
    },
    {
      "type": "Feature",
      "properties": {
        "name": "BASHO"
      },
      "geometry": {
        "type": "Point",
        "coordinates": [
          128.84433055555556,
          27.0659
        ]
      }
    },
    {
      "type": "Feature",
      "properties": {
        "name": "BASIL"
      },
      "geometry": {
        "type": "Point",
        "coordinates": [
          132.42803333333333,
          34.515455555555555
        ]
      }
    },
    {
      "type": "Feature",
      "properties": {
        "name": "BASIN"
      },
      "geometry": {
        "type": "Point",
        "coordinates": [
          138.94203333333334,
          38.121
        ]
      }
    },
    {
      "type": "Feature",
      "properties": {
        "name": "BASSA"
      },
      "geometry": {
        "type": "Point",
        "coordinates": [
          139.76172777777776,
          35.352444444444444
        ]
      }
    },
    {
      "type": "Feature",
      "properties": {
        "name": "BATAK"
      },
      "geometry": {
        "type": "Point",
        "coordinates": [
          133.90592777777778,
          33.56785555555556
        ]
      }
    },
    {
      "type": "Feature",
      "properties": {
        "name": "BATTL"
      },
      "geometry": {
        "type": "Point",
        "coordinates": [
          141.06667777777778,
          41.05515555555555
        ]
      }
    },
    {
      "type": "Feature",
      "properties": {
        "name": "BAYGE"
      },
      "geometry": {
        "type": "Point",
        "coordinates": [
          139.72428333333335,
          35.42648888888888
        ]
      }
    },
    {
      "type": "Feature",
      "properties": {
        "name": "BEAMA"
      },
      "geometry": {
        "type": "Point",
        "coordinates": [
          130.3246722222222,
          33.56296388888889
        ]
      }
    },
    {
      "type": "Feature",
      "properties": {
        "name": "BEAMS"
      },
      "geometry": {
        "type": "Point",
        "coordinates": [
          140.53141666666667,
          35.5925
        ]
      }
    },
    {
      "type": "Feature",
      "properties": {
        "name": "BEAST"
      },
      "geometry": {
        "type": "Point",
        "coordinates": [
          140.142925,
          35.605650000000004
        ]
      }
    },
    {
      "type": "Feature",
      "properties": {
        "name": "BEBIL"
      },
      "geometry": {
        "type": "Point",
        "coordinates": [
          135.31438055555557,
          34.501105555555554
        ]
      }
    },
    {
      "type": "Feature",
      "properties": {
        "name": "BECKY"
      },
      "geometry": {
        "type": "Point",
        "coordinates": [
          134.50850833333334,
          33.91916944444444
        ]
      }
    },
    {
      "type": "Feature",
      "properties": {
        "name": "BEDAR"
      },
      "geometry": {
        "type": "Point",
        "coordinates": [
          126.48611111111111,
          31.900277777777777
        ]
      }
    },
    {
      "type": "Feature",
      "properties": {
        "name": "BEEBA"
      },
      "geometry": {
        "type": "Point",
        "coordinates": [
          141.7166083333333,
          43.35185277777778
        ]
      }
    },
    {
      "type": "Feature",
      "properties": {
        "name": "BEEBO"
      },
      "geometry": {
        "type": "Point",
        "coordinates": [
          153.19055555555556,
          22.407777777777778
        ]
      }
    },
    {
      "type": "Feature",
      "properties": {
        "name": "BEETL"
      },
      "geometry": {
        "type": "Point",
        "coordinates": [
          129.82924722222222,
          34.26246388888889
        ]
      }
    },
    {
      "type": "Feature",
      "properties": {
        "name": "BEGAD"
      },
      "geometry": {
        "type": "Point",
        "coordinates": [
          143.2465722222222,
          33.386919444444445
        ]
      }
    },
    {
      "type": "Feature",
      "properties": {
        "name": "BEGES"
      },
      "geometry": {
        "type": "Point",
        "coordinates": [
          135.31533055555556,
          34.50174166666667
        ]
      }
    },
    {
      "type": "Feature",
      "properties": {
        "name": "BEGNI"
      },
      "geometry": {
        "type": "Point",
        "coordinates": [
          130.57381666666666,
          33.401466666666664
        ]
      }
    },
    {
      "type": "Feature",
      "properties": {
        "name": "BEGOP"
      },
      "geometry": {
        "type": "Point",
        "coordinates": [
          132.34881111111113,
          33.43831944444444
        ]
      }
    },
    {
      "type": "Feature",
      "properties": {
        "name": "BEGSA"
      },
      "geometry": {
        "type": "Point",
        "coordinates": [
          138.40399444444446,
          37.71029444444445
        ]
      }
    },
    {
      "type": "Feature",
      "properties": {
        "name": "BEGUL"
      },
      "geometry": {
        "type": "Point",
        "coordinates": [
          137.7999722222222,
          35.257955555555554
        ]
      }
    },
    {
      "type": "Feature",
      "properties": {
        "name": "BEKEN"
      },
      "geometry": {
        "type": "Point",
        "coordinates": [
          142.06165555555557,
          38.00586944444444
        ]
      }
    },
    {
      "type": "Feature",
      "properties": {
        "name": "BEKLA"
      },
      "geometry": {
        "type": "Point",
        "coordinates": [
          139.16930555555555,
          35.83296111111112
        ]
      }
    },
    {
      "type": "Feature",
      "properties": {
        "name": "BEKPO"
      },
      "geometry": {
        "type": "Point",
        "coordinates": [
          142.48189166666666,
          36.90987222222222
        ]
      }
    },
    {
      "type": "Feature",
      "properties": {
        "name": "BELKS"
      },
      "geometry": {
        "type": "Point",
        "coordinates": [
          140.74256944444443,
          35.110705555555555
        ]
      }
    },
    {
      "type": "Feature",
      "properties": {
        "name": "BELMI"
      },
      "geometry": {
        "type": "Point",
        "coordinates": [
          141.258875,
          43.09271666666667
        ]
      }
    },
    {
      "type": "Feature",
      "properties": {
        "name": "BENES"
      },
      "geometry": {
        "type": "Point",
        "coordinates": [
          134.15540833333333,
          34.83454166666667
        ]
      }
    },
    {
      "type": "Feature",
      "properties": {
        "name": "BENKO"
      },
      "geometry": {
        "type": "Point",
        "coordinates": [
          137.1009472222222,
          37.36340555555556
        ]
      }
    },
    {
      "type": "Feature",
      "properties": {
        "name": "BENNY"
      },
      "geometry": {
        "type": "Point",
        "coordinates": [
          139.6922027777778,
          39.02896666666667
        ]
      }
    },
    {
      "type": "Feature",
      "properties": {
        "name": "BEPPO"
      },
      "geometry": {
        "type": "Point",
        "coordinates": [
          144.283625,
          43.063375
        ]
      }
    },
    {
      "type": "Feature",
      "properties": {
        "name": "BERBO"
      },
      "geometry": {
        "type": "Point",
        "coordinates": [
          131.14338055555555,
          33.952847222222225
        ]
      }
    },
    {
      "type": "Feature",
      "properties": {
        "name": "BERMA"
      },
      "geometry": {
        "type": "Point",
        "coordinates": [
          136.59116111111112,
          34.89128888888889
        ]
      }
    },
    {
      "type": "Feature",
      "properties": {
        "name": "BERRY"
      },
      "geometry": {
        "type": "Point",
        "coordinates": [
          134.94210833333335,
          34.250544444444444
        ]
      }
    },
    {
      "type": "Feature",
      "properties": {
        "name": "BERSA"
      },
      "geometry": {
        "type": "Point",
        "coordinates": [
          130.4717777777778,
          33.10266388888889
        ]
      }
    },
    {
      "type": "Feature",
      "properties": {
        "name": "BESAR"
      },
      "geometry": {
        "type": "Point",
        "coordinates": [
          140.65454444444444,
          41.77641111111111
        ]
      }
    },
    {
      "type": "Feature",
      "properties": {
        "name": "BESMU"
      },
      "geometry": {
        "type": "Point",
        "coordinates": [
          131.96435,
          34.812599999999996
        ]
      }
    },
    {
      "type": "Feature",
      "properties": {
        "name": "BESNA"
      },
      "geometry": {
        "type": "Point",
        "coordinates": [
          129.13083333333333,
          34.62166666666667
        ]
      }
    },
    {
      "type": "Feature",
      "properties": {
        "name": "BESRU"
      },
      "geometry": {
        "type": "Point",
        "coordinates": [
          143.9912611111111,
          42.88270555555555
        ]
      }
    },
    {
      "type": "Feature",
      "properties": {
        "name": "BETEL"
      },
      "geometry": {
        "type": "Point",
        "coordinates": [
          140.89538888888887,
          35.992108333333334
        ]
      }
    },
    {
      "type": "Feature",
      "properties": {
        "name": "BETTY"
      },
      "geometry": {
        "type": "Point",
        "coordinates": [
          125.30106666666667,
          24.205594444444444
        ]
      }
    },
    {
      "type": "Feature",
      "properties": {
        "name": "BIBLO"
      },
      "geometry": {
        "type": "Point",
        "coordinates": [
          140.18559444444446,
          35.58576388888889
        ]
      }
    },
    {
      "type": "Feature",
      "properties": {
        "name": "BIDIK"
      },
      "geometry": {
        "type": "Point",
        "coordinates": [
          137.48599444444443,
          36.01281111111111
        ]
      }
    },
    {
      "type": "Feature",
      "properties": {
        "name": "BIGIT"
      },
      "geometry": {
        "type": "Point",
        "coordinates": [
          127.12060277777778,
          32.03915
        ]
      }
    },
    {
      "type": "Feature",
      "properties": {
        "name": "BIHOK"
      },
      "geometry": {
        "type": "Point",
        "coordinates": [
          133.0139861111111,
          34.89360833333333
        ]
      }
    },
    {
      "type": "Feature",
      "properties": {
        "name": "BIJIN"
      },
      "geometry": {
        "type": "Point",
        "coordinates": [
          140.40709722222223,
          39.514608333333335
        ]
      }
    },
    {
      "type": "Feature",
      "properties": {
        "name": "BIKAN"
      },
      "geometry": {
        "type": "Point",
        "coordinates": [
          134.0564388888889,
          34.855444444444444
        ]
      }
    },
    {
      "type": "Feature",
      "properties": {
        "name": "BIKLO"
      },
      "geometry": {
        "type": "Point",
        "coordinates": [
          134.5867888888889,
          33.742786111111116
        ]
      }
    },
    {
      "type": "Feature",
      "properties": {
        "name": "BILLY"
      },
      "geometry": {
        "type": "Point",
        "coordinates": [
          137.61982777777777,
          33.611136111111115
        ]
      }
    },
    {
      "type": "Feature",
      "properties": {
        "name": "BINGO"
      },
      "geometry": {
        "type": "Point",
        "coordinates": [
          133.17796666666666,
          34.40714444444444
        ]
      }
    },
    {
      "type": "Feature",
      "properties": {
        "name": "BINID"
      },
      "geometry": {
        "type": "Point",
        "coordinates": [
          128.89804444444442,
          27.902099999999997
        ]
      }
    },
    {
      "type": "Feature",
      "properties": {
        "name": "BINKS"
      },
      "geometry": {
        "type": "Point",
        "coordinates": [
          140.73240833333332,
          35.187863888888884
        ]
      }
    },
    {
      "type": "Feature",
      "properties": {
        "name": "BIRDY"
      },
      "geometry": {
        "type": "Point",
        "coordinates": [
          140.3261861111111,
          35.87692222222222
        ]
      }
    },
    {
      "type": "Feature",
      "properties": {
        "name": "BIRKN"
      },
      "geometry": {
        "type": "Point",
        "coordinates": [
          133.78830555555555,
          33.36183611111111
        ]
      }
    },
    {
      "type": "Feature",
      "properties": {
        "name": "BISAK"
      },
      "geometry": {
        "type": "Point",
        "coordinates": [
          144.17413888888888,
          43.802458333333334
        ]
      }
    },
    {
      "type": "Feature",
      "properties": {
        "name": "BISAM"
      },
      "geometry": {
        "type": "Point",
        "coordinates": [
          138.25453333333334,
          39.91883611111111
        ]
      }
    },
    {
      "type": "Feature",
      "properties": {
        "name": "BISEI"
      },
      "geometry": {
        "type": "Point",
        "coordinates": [
          142.9287861111111,
          42.865183333333334
        ]
      }
    },
    {
      "type": "Feature",
      "properties": {
        "name": "BISIG"
      },
      "geometry": {
        "type": "Point",
        "coordinates": [
          125.26666666666667,
          21.0
        ]
      }
    },
    {
      "type": "Feature",
      "properties": {
        "name": "BISIS"
      },
      "geometry": {
        "type": "Point",
        "coordinates": [
          126.54925555555555,
          26.78923055555556
        ]
      }
    },
    {
      "type": "Feature",
      "properties": {
        "name": "BISIV"
      },
      "geometry": {
        "type": "Point",
        "coordinates": [
          144.28287222222224,
          44.99203333333333
        ]
      }
    },
    {
      "type": "Feature",
      "properties": {
        "name": "BITEK"
      },
      "geometry": {
        "type": "Point",
        "coordinates": [
          143.60076944444444,
          35.794558333333335
        ]
      }
    },
    {
      "type": "Feature",
      "properties": {
        "name": "BITEP"
      },
      "geometry": {
        "type": "Point",
        "coordinates": [
          136.6302777777778,
          34.56321666666666
        ]
      }
    },
    {
      "type": "Feature",
      "properties": {
        "name": "BIVET"
      },
      "geometry": {
        "type": "Point",
        "coordinates": [
          138.6769,
          35.47396944444445
        ]
      }
    },
    {
      "type": "Feature",
      "properties": {
        "name": "BIVUK"
      },
      "geometry": {
        "type": "Point",
        "coordinates": [
          130.38217500000002,
          33.68226111111111
        ]
      }
    },
    {
      "type": "Feature",
      "properties": {
        "name": "BIWWA"
      },
      "geometry": {
        "type": "Point",
        "coordinates": [
          136.25600277777778,
          35.11599722222223
        ]
      }
    },
    {
      "type": "Feature",
      "properties": {
        "name": "BIXAB"
      },
      "geometry": {
        "type": "Point",
        "coordinates": [
          130.33256111111112,
          33.754619444444444
        ]
      }
    },
    {
      "type": "Feature",
      "properties": {
        "name": "BIXAK"
      },
      "geometry": {
        "type": "Point",
        "coordinates": [
          133.1375611111111,
          27.880605555555555
        ]
      }
    },
    {
      "type": "Feature",
      "properties": {
        "name": "BIXIS"
      },
      "geometry": {
        "type": "Point",
        "coordinates": [
          134.21824722222223,
          34.08305555555556
        ]
      }
    },
    {
      "type": "Feature",
      "properties": {
        "name": "BIXUR"
      },
      "geometry": {
        "type": "Point",
        "coordinates": [
          134.28664722222223,
          34.33518333333333
        ]
      }
    },
    {
      "type": "Feature",
      "properties": {
        "name": "BIZAN"
      },
      "geometry": {
        "type": "Point",
        "coordinates": [
          134.50069444444443,
          34.10364444444445
        ]
      }
    },
    {
      "type": "Feature",
      "properties": {
        "name": "BIZEN"
      },
      "geometry": {
        "type": "Point",
        "coordinates": [
          134.21508888888889,
          34.70990277777778
        ]
      }
    },
    {
      "type": "Feature",
      "properties": {
        "name": "BLISS"
      },
      "geometry": {
        "type": "Point",
        "coordinates": [
          127.63973333333334,
          26.047022222222225
        ]
      }
    },
    {
      "type": "Feature",
      "properties": {
        "name": "BLUES"
      },
      "geometry": {
        "type": "Point",
        "coordinates": [
          131.9064138888889,
          34.866394444444445
        ]
      }
    },
    {
      "type": "Feature",
      "properties": {
        "name": "BNCHO"
      },
      "geometry": {
        "type": "Point",
        "coordinates": [
          141.01035277777777,
          38.09345555555556
        ]
      }
    },
    {
      "type": "Feature",
      "properties": {
        "name": "BOBEG"
      },
      "geometry": {
        "type": "Point",
        "coordinates": [
          136.80723055555558,
          36.77707222222222
        ]
      }
    },
    {
      "type": "Feature",
      "properties": {
        "name": "BOCHU"
      },
      "geometry": {
        "type": "Point",
        "coordinates": [
          131.04033055555556,
          32.93344166666666
        ]
      }
    },
    {
      "type": "Feature",
      "properties": {
        "name": "BOGON"
      },
      "geometry": {
        "type": "Point",
        "coordinates": [
          137.5955027777778,
          34.5425
        ]
      }
    },
    {
      "type": "Feature",
      "properties": {
        "name": "BOHNI"
      },
      "geometry": {
        "type": "Point",
        "coordinates": [
          140.71616388888887,
          41.601730555555555
        ]
      }
    },
    {
      "type": "Feature",
      "properties": {
        "name": "BOKJO"
      },
      "geometry": {
        "type": "Point",
        "coordinates": [
          138.38493888888888,
          34.54233055555555
        ]
      }
    },
    {
      "type": "Feature",
      "properties": {
        "name": "BOKSO"
      },
      "geometry": {
        "type": "Point",
        "coordinates": [
          142.46518055555555,
          42.80520555555555
        ]
      }
    },
    {
      "type": "Feature",
      "properties": {
        "name": "BOLAL"
      },
      "geometry": {
        "type": "Point",
        "coordinates": [
          135.01911111111113,
          34.3026
        ]
      }
    },
    {
      "type": "Feature",
      "properties": {
        "name": "BOLED"
      },
      "geometry": {
        "type": "Point",
        "coordinates": [
          137.74672222222222,
          30.963036111111112
        ]
      }
    },
    {
      "type": "Feature",
      "properties": {
        "name": "BOLEO"
      },
      "geometry": {
        "type": "Point",
        "coordinates": [
          130.2791277777778,
          33.08631666666667
        ]
      }
    },
    {
      "type": "Feature",
      "properties": {
        "name": "BOLIG"
      },
      "geometry": {
        "type": "Point",
        "coordinates": [
          134.17549722222222,
          35.066180555555555
        ]
      }
    },
    {
      "type": "Feature",
      "properties": {
        "name": "BOLUT"
      },
      "geometry": {
        "type": "Point",
        "coordinates": [
          124.70333333333333,
          28.772777777777776
        ]
      }
    },
    {
      "type": "Feature",
      "properties": {
        "name": "BOMAP"
      },
      "geometry": {
        "type": "Point",
        "coordinates": [
          129.82446388888889,
          30.003655555555557
        ]
      }
    },
    {
      "type": "Feature",
      "properties": {
        "name": "BONDO"
      },
      "geometry": {
        "type": "Point",
        "coordinates": [
          140.07846666666666,
          35.605355555555555
        ]
      }
    },
    {
      "type": "Feature",
      "properties": {
        "name": "BONGO"
      },
      "geometry": {
        "type": "Point",
        "coordinates": [
          140.9572222222222,
          37.4125
        ]
      }
    },
    {
      "type": "Feature",
      "properties": {
        "name": "BONJI"
      },
      "geometry": {
        "type": "Point",
        "coordinates": [
          140.297925,
          39.98706388888889
        ]
      }
    },
    {
      "type": "Feature",
      "properties": {
        "name": "BONTI"
      },
      "geometry": {
        "type": "Point",
        "coordinates": [
          138.51135,
          35.52846111111111
        ]
      }
    },
    {
      "type": "Feature",
      "properties": {
        "name": "BONUS"
      },
      "geometry": {
        "type": "Point",
        "coordinates": [
          140.119325,
          35.60554722222222
        ]
      }
    },
    {
      "type": "Feature",
      "properties": {
        "name": "BOOST"
      },
      "geometry": {
        "type": "Point",
        "coordinates": [
          127.63655277777778,
          26.11476388888889
        ]
      }
    },
    {
      "type": "Feature",
      "properties": {
        "name": "BOOTH"
      },
      "geometry": {
        "type": "Point",
        "coordinates": [
          140.8556861111111,
          35.67322222222222
        ]
      }
    },
    {
      "type": "Feature",
      "properties": {
        "name": "BOPNO"
      },
      "geometry": {
        "type": "Point",
        "coordinates": [
          138.1676361111111,
          34.943236111111105
        ]
      }
    },
    {
      "type": "Feature",
      "properties": {
        "name": "BORDO"
      },
      "geometry": {
        "type": "Point",
        "coordinates": [
          124.0,
          26.016666666666666
        ]
      }
    },
    {
      "type": "Feature",
      "properties": {
        "name": "BORLO"
      },
      "geometry": {
        "type": "Point",
        "coordinates": [
          141.74878055555556,
          35.276047222222225
        ]
      }
    },
    {
      "type": "Feature",
      "properties": {
        "name": "BOROS"
      },
      "geometry": {
        "type": "Point",
        "coordinates": [
          129.89808333333332,
          28.549613888888892
        ]
      }
    },
    {
      "type": "Feature",
      "properties": {
        "name": "BOSPA"
      },
      "geometry": {
        "type": "Point",
        "coordinates": [
          141.08645833333335,
          35.79926388888889
        ]
      }
    },
    {
      "type": "Feature",
      "properties": {
        "name": "BOTAN"
      },
      "geometry": {
        "type": "Point",
        "coordinates": [
          133.18496666666667,
          33.465650000000004
        ]
      }
    },
    {
      "type": "Feature",
      "properties": {
        "name": "BOTRA"
      },
      "geometry": {
        "type": "Point",
        "coordinates": [
          134.8141777777778,
          33.744077777777775
        ]
      }
    },
    {
      "type": "Feature",
      "properties": {
        "name": "BOUZU"
      },
      "geometry": {
        "type": "Point",
        "coordinates": [
          142.50156388888888,
          43.589644444444446
        ]
      }
    },
    {
      "type": "Feature",
      "properties": {
        "name": "BOXER"
      },
      "geometry": {
        "type": "Point",
        "coordinates": [
          140.331,
          35.87027777777778
        ]
      }
    },
    {
      "type": "Feature",
      "properties": {
        "name": "BRAID"
      },
      "geometry": {
        "type": "Point",
        "coordinates": [
          131.15308333333334,
          33.38489722222222
        ]
      }
    },
    {
      "type": "Feature",
      "properties": {
        "name": "BRASS"
      },
      "geometry": {
        "type": "Point",
        "coordinates": [
          135.37526666666668,
          34.54183333333333
        ]
      }
    },
    {
      "type": "Feature",
      "properties": {
        "name": "BRENT"
      },
      "geometry": {
        "type": "Point",
        "coordinates": [
          123.18277777777779,
          25.01833333333333
        ]
      }
    },
    {
      "type": "Feature",
      "properties": {
        "name": "BRIKO"
      },
      "geometry": {
        "type": "Point",
        "coordinates": [
          139.96699722222223,
          39.553936111111106
        ]
      }
    },
    {
      "type": "Feature",
      "properties": {
        "name": "BRITE"
      },
      "geometry": {
        "type": "Point",
        "coordinates": [
          134.186175,
          34.88151944444444
        ]
      }
    },
    {
      "type": "Feature",
      "properties": {
        "name": "BROOK"
      },
      "geometry": {
        "type": "Point",
        "coordinates": [
          140.17753333333332,
          36.03726666666667
        ]
      }
    },
    {
      "type": "Feature",
      "properties": {
        "name": "BRUCE"
      },
      "geometry": {
        "type": "Point",
        "coordinates": [
          139.94886944444445,
          36.20012222222223
        ]
      }
    },
    {
      "type": "Feature",
      "properties": {
        "name": "BRUTE"
      },
      "geometry": {
        "type": "Point",
        "coordinates": [
          134.33530555555558,
          34.3436
        ]
      }
    },
    {
      "type": "Feature",
      "properties": {
        "name": "BUBDO"
      },
      "geometry": {
        "type": "Point",
        "coordinates": [
          136.65384166666666,
          31.43196388888889
        ]
      }
    },
    {
      "type": "Feature",
      "properties": {
        "name": "BUBLE"
      },
      "geometry": {
        "type": "Point",
        "coordinates": [
          140.99895277777776,
          38.059355555555555
        ]
      }
    },
    {
      "type": "Feature",
      "properties": {
        "name": "BUBTI"
      },
      "geometry": {
        "type": "Point",
        "coordinates": [
          130.62307777777778,
          33.32895833333334
        ]
      }
    },
    {
      "type": "Feature",
      "properties": {
        "name": "BUDOH"
      },
      "geometry": {
        "type": "Point",
        "coordinates": [
          139.30863333333335,
          38.39958333333333
        ]
      }
    },
    {
      "type": "Feature",
      "properties": {
        "name": "BUENA"
      },
      "geometry": {
        "type": "Point",
        "coordinates": [
          133.0423,
          34.435963888888885
        ]
      }
    },
    {
      "type": "Feature",
      "properties": {
        "name": "BUICK"
      },
      "geometry": {
        "type": "Point",
        "coordinates": [
          128.74349444444442,
          26.068269444444443
        ]
      }
    },
    {
      "type": "Feature",
      "properties": {
        "name": "BUKRO"
      },
      "geometry": {
        "type": "Point",
        "coordinates": [
          123.83503333333333,
          24.33138611111111
        ]
      }
    },
    {
      "type": "Feature",
      "properties": {
        "name": "BULAN"
      },
      "geometry": {
        "type": "Point",
        "coordinates": [
          124.0,
          27.091666666666665
        ]
      }
    },
    {
      "type": "Feature",
      "properties": {
        "name": "BULDO"
      },
      "geometry": {
        "type": "Point",
        "coordinates": [
          145.19025277777777,
          43.540875
        ]
      }
    },
    {
      "type": "Feature",
      "properties": {
        "name": "BUMER"
      },
      "geometry": {
        "type": "Point",
        "coordinates": [
          134.99647499999998,
          34.75631111111111
        ]
      }
    },
    {
      "type": "Feature",
      "properties": {
        "name": "BUNNY"
      },
      "geometry": {
        "type": "Point",
        "coordinates": [
          136.95678888888887,
          34.69584722222222
        ]
      }
    },
    {
      "type": "Feature",
      "properties": {
        "name": "BUSNI"
      },
      "geometry": {
        "type": "Point",
        "coordinates": [
          140.33771111111113,
          37.57818055555556
        ]
      }
    },
    {
      "type": "Feature",
      "properties": {
        "name": "BUSYU"
      },
      "geometry": {
        "type": "Point",
        "coordinates": [
          138.79873333333333,
          35.794425
        ]
      }
    },
    {
      "type": "Feature",
      "properties": {
        "name": "BUTOS"
      },
      "geometry": {
        "type": "Point",
        "coordinates": [
          141.4216111111111,
          39.43335833333333
        ]
      }
    },
    {
      "type": "Feature",
      "properties": {
        "name": "BUTUR"
      },
      "geometry": {
        "type": "Point",
        "coordinates": [
          131.61884722222223,
          33.712588888888895
        ]
      }
    },
    {
      "type": "Feature",
      "properties": {
        "name": "BUTUS"
      },
      "geometry": {
        "type": "Point",
        "coordinates": [
          144.300575,
          43.88387222222222
        ]
      }
    },
    {
      "type": "Feature",
      "properties": {
        "name": "BYOBU"
      },
      "geometry": {
        "type": "Point",
        "coordinates": [
          140.73729166666666,
          41.00265
        ]
      }
    },
    {
      "type": "Feature",
      "properties": {
        "name": "BYODO"
      },
      "geometry": {
        "type": "Point",
        "coordinates": [
          135.7897361111111,
          34.92878611111111
        ]
      }
    },
    {
      "type": "Feature",
      "properties": {
        "name": "CACAO"
      },
      "geometry": {
        "type": "Point",
        "coordinates": [
          139.92503888888888,
          35.370225
        ]
      }
    },
    {
      "type": "Feature",
      "properties": {
        "name": "CADDY"
      },
      "geometry": {
        "type": "Point",
        "coordinates": [
          139.98706944444444,
          31.00005
        ]
      }
    },
    {
      "type": "Feature",
      "properties": {
        "name": "CAMAS"
      },
      "geometry": {
        "type": "Point",
        "coordinates": [
          128.26247777777778,
          32.72253611111111
        ]
      }
    },
    {
      "type": "Feature",
      "properties": {
        "name": "CAMEL"
      },
      "geometry": {
        "type": "Point",
        "coordinates": [
          139.9827138888889,
          35.28839166666666
        ]
      }
    },